[{
  "locationCode": "LUX",
  "title": "Luxembourg",
  "airAlliance": true,
  "airPartner": false,
  "city": "Luxembourg city",
  "country": "Luxembourg",
  "continent": "Europe",
  "lat": 49.61162100000001,
  "lon": 6.1319346
}, {
  "locationCode": "JSI",
  "title": "Skiathos Alex Papadiamantis",
  "airAlliance": false,
  "airPartner": false,
  "city": "Skiathos",
  "country": "Greece",
  "continent": "Europe",
  "lat": 39.16352,
  "lon": 23.4901667
}, {
  "locationCode": "NRT",
  "title": "Tokyo Narita International",
  "airAlliance": false,
  "airPartner": false,
  "city": "Tokyo",
  "country": "Japan",
  "continent": "Asia",
  "lat": 35.6894875,
  "lon": 139.6917064
}, {
  "locationCode": "CFU",
  "title": "Corfu",
  "airAlliance": true,
  "airPartner": false,
  "city": "Corfu",
  "country": "Greece",
  "continent": "Europe",
  "lat": 39.6242621,
  "lon": 19.9216777
}, {
  "locationCode": "BLL",
  "title": "Billund",
  "airAlliance": true,
  "airPartner": false,
  "city": "Billund",
  "country": "Denmark",
  "continent": "Europe",
  "lat": 55.728449,
  "lon": 9.112366000000002
}, {
  "locationCode": "AQJ",
  "title": "Aqaba King Hussein International",
  "airAlliance": true,
  "airPartner": false,
  "city": "Aqaba",
  "country": "Jordan",
  "continent": "Asia",
  "lat": 29.5320522,
  "lon": 35.0063209
}, {
  "locationCode": "OUL",
  "title": "Oulu",
  "airAlliance": false,
  "airPartner": false,
  "city": "Oulu",
  "country": "Finland",
  "continent": "Europe",
  "lat": 65.0120888,
  "lon": 25.4650772
}, {
  "locationCode": "VDA",
  "title": "Eilat Ovda",
  "airAlliance": false,
  "airPartner": false,
  "city": "Eilat",
  "country": "Israel",
  "continent": "Asia",
  "lat": 29.557669,
  "lon": 34.951925
}, {
  "locationCode": "KRK",
  "title": "Krakow John Paul II Balice",
  "airAlliance": false,
  "airPartner": false,
  "city": "Kraków",
  "country": "Poland",
  "continent": "Europe",
  "lat": 50.06465009999999,
  "lon": 19.9449799
}, {
  "locationCode": "FLL",
  "title": "Fort Lauderdale FLL International",
  "airAlliance": true,
  "airPartner": false,
  "city": "Fort Lauderdale",
  "country": "United States",
  "continent": "North America",
  "lat": 26.1224386,
  "lon": -80.13731740000001
}, {
  "locationCode": "LPA",
  "title": "Gran Canaria",
  "airAlliance": false,
  "airPartner": false,
  "city": "Las Palmas",
  "country": "Spain",
  "continent": "Europe",
  "lat": 28.1235459,
  "lon": -15.4362574
}, {
  "locationCode": "KZN",
  "title": "Kazan International",
  "airAlliance": false,
  "airPartner": false,
  "city": "Kazan",
  "country": "Russia",
  "continent": "Europe",
  "lat": 55.8304307,
  "lon": 49.06608060000001
}, {
  "locationCode": "DTW",
  "title": "Detroit Metropolitan Wayne Co",
  "airAlliance": true,
  "airPartner": false,
  "city": "Detroit",
  "country": "United States",
  "continent": "North America",
  "lat": 42.331427,
  "lon": -83.0457538
}, {
  "locationCode": "NAP",
  "title": "Naples Capodichino Airport",
  "airAlliance": false,
  "airPartner": false,
  "city": "Naples",
  "country": "Italy",
  "continent": "Europe",
  "lat": 40.8517746,
  "lon": 14.2681244
}, {
  "locationCode": "FRA",
  "title": "Frankfurt International",
  "airAlliance": false,
  "airPartner": false,
  "city": "Frankfurt",
  "country": "Germany",
  "continent": "Europe",
  "lat": 50.1109221,
  "lon": 8.6821267
}, {
  "locationCode": "TOS",
  "title": "Tromso Langnes",
  "airAlliance": false,
  "airPartner": true,
  "city": "Tromsø",
  "country": "Norway",
  "continent": "Europe",
  "lat": 69.6492047,
  "lon": 18.9553239
}, {
  "locationCode": "VNO",
  "title": "Vilnius International",
  "airAlliance": false,
  "airPartner": false,
  "city": "Vilnius",
  "country": "Lithuania",
  "continent": "Europe",
  "lat": 54.6871555,
  "lon": 25.2796514
}, {
  "locationCode": "SVX",
  "title": "Yekaterinburg Koltsovo",
  "airAlliance": false,
  "airPartner": false,
  "city": "Yekaterinburg",
  "country": "Russia",
  "continent": "Europe",
  "lat": 56.83892609999999,
  "lon": 60.6057025
}, {
  "locationCode": "TAY",
  "title": "Tartu Ulenurme",
  "airAlliance": false,
  "airPartner": false,
  "city": "Tartu",
  "country": "Estonia",
  "continent": "Europe",
  "lat": 58.3776252,
  "lon": 26.7290062
}, {
  "locationCode": "HAM",
  "title": "Hamburg",
  "airAlliance": false,
  "airPartner": false,
  "city": "Hamburg",
  "country": "Germany",
  "continent": "Europe",
  "lat": 53.5510846,
  "lon": 9.9936819
}, {
  "locationCode": "TXL",
  "title": "Berlin Tegel",
  "airAlliance": false,
  "airPartner": false,
  "city": "Berlin",
  "country": "Germany",
  "continent": "Europe",
  "lat": 52.52000659999999,
  "lon": 13.404954
}, {
  "locationCode": "INN",
  "title": "Innsbruck Airport",
  "airAlliance": false,
  "airPartner": false,
  "city": "Innsbruck",
  "country": "Austria",
  "continent": "Europe",
  "lat": 47.2692124,
  "lon": 11.4041024
}, {
  "locationCode": "OTP",
  "title": "Bucharest Henri Coanda",
  "airAlliance": true,
  "airPartner": false,
  "city": "Bucharest",
  "country": "Romania",
  "continent": "Europe",
  "lat": 44.4267674,
  "lon": 26.1025384
}, {
  "locationCode": "BGO",
  "title": "Bergen Flesland",
  "airAlliance": false,
  "airPartner": false,
  "city": "Bergen",
  "country": "Norway",
  "continent": "Europe",
  "lat": 60.39126279999999,
  "lon": 5.3220544
}, {
  "locationCode": "JOE",
  "title": "Joensuu",
  "airAlliance": false,
  "airPartner": false,
  "city": "Joensuu",
  "country": "Finland",
  "continent": "Europe",
  "lat": 62.6010155,
  "lon": 29.7635719
}, {
  "locationCode": "FCO",
  "title": "Rome Fiumicino",
  "airAlliance": false,
  "airPartner": false,
  "city": "Rome",
  "country": "Italy",
  "continent": "Europe",
  "lat": 41.9027835,
  "lon": 12.4963655
}, {
  "locationCode": "CDG",
  "title": "Paris Charles De Gaulle",
  "airAlliance": false,
  "airPartner": false,
  "city": "Paris",
  "country": "France",
  "continent": "Europe",
  "lat": 48.856614,
  "lon": 2.3522219
}, {
  "locationCode": "PVG",
  "title": "Shanghai Pudong International",
  "airAlliance": false,
  "airPartner": false,
  "city": "Shanghai",
  "country": "China",
  "continent": "Asia",
  "lat": 31.2303904,
  "lon": 121.4737021
}, {
  "locationCode": "CMB",
  "title": "Colombo Bandaranaike International",
  "airAlliance": true,
  "airPartner": false,
  "city": "Colombo",
  "country": "Sri Lanka",
  "continent": "Asia",
  "lat": 6.9270786,
  "lon": 79.861243
}, {
  "locationCode": "AMM",
  "title": "Amman Queen Alia",
  "airAlliance": true,
  "airPartner": false,
  "city": "Amman",
  "country": "Jordan",
  "continent": "Asia",
  "lat": 31.9453666,
  "lon": 35.9283716
}, {
  "locationCode": "HAN",
  "title": "Hanoi Noi Bai International",
  "airAlliance": true,
  "airPartner": false,
  "city": "Hanoi",
  "country": "Vietnam",
  "continent": "Asia",
  "lat": 21.0277644,
  "lon": 105.8341598
}, {
  "locationCode": "CHQ",
  "title": "Chania I Daskalogiannis",
  "airAlliance": false,
  "airPartner": false,
  "city": "Chania",
  "country": "Greece",
  "continent": "Europe",
  "lat": 35.5138298,
  "lon": 24.0180367
}, {
  "locationCode": "ORD",
  "title": "Chicago O Hare International",
  "airAlliance": false,
  "airPartner": false,
  "city": "Chicago",
  "country": "United States",
  "continent": "North America",
  "lat": 41.8781136,
  "lon": -87.6297982
}, {
  "locationCode": "PTY",
  "title": "Panama city Tocumen International",
  "airAlliance": true,
  "airPartner": false,
  "city": "Panama city",
  "country": "Panama",
  "continent": "North America",
  "lat": 8.9823792,
  "lon": -79.51986959999999
}, {
  "locationCode": "RVN",
  "title": "Rovaniemi",
  "airAlliance": false,
  "airPartner": false,
  "city": "Rovaniemi",
  "country": "Finland",
  "continent": "Europe",
  "lat": 66.50394779999999,
  "lon": 25.7293906
}, {
  "locationCode": "BMA",
  "title": "Stockholm Bromma",
  "airAlliance": false,
  "airPartner": false,
  "city": "Stockholm",
  "country": "Sweden",
  "continent": "Europe",
  "lat": 59.32932349999999,
  "lon": 18.0685808
}, {
  "locationCode": "PEK",
  "title": "Beijing Capital International",
  "airAlliance": false,
  "airPartner": false,
  "city": "Beijing",
  "country": "China",
  "continent": "Asia",
  "lat": 39.90419989999999,
  "lon": 116.4073963
}, {
  "locationCode": "MNL",
  "title": "Manila Ninoy Aquino International",
  "airAlliance": true,
  "airPartner": false,
  "city": "Manila",
  "country": "Philippines",
  "continent": "Asia",
  "lat": 14.5995124,
  "lon": 120.9842195
}, {
  "locationCode": "NCE",
  "title": "Nice CÃ´te D'Azur ",
  "airAlliance": false,
  "airPartner": false,
  "city": "Nice",
  "country": "France",
  "continent": "Europe",
  "lat": 43.7101728,
  "lon": 7.261953200000001
}, {
  "locationCode": "HER",
  "title": "Heraklion Nikos Kazantzakis",
  "airAlliance": false,
  "airPartner": false,
  "city": "Heraklion",
  "country": "Greece",
  "continent": "Europe",
  "lat": 35.3387352,
  "lon": 25.1442126
}, {
  "locationCode": "ATH",
  "title": "Athens International E. Venizelos",
  "airAlliance": false,
  "airPartner": false,
  "city": "Athens",
  "country": "Greece",
  "continent": "Europe",
  "lat": 37.9838096,
  "lon": 23.7275388
}, {
  "locationCode": "MIA",
  "title": "Miami International",
  "airAlliance": false,
  "airPartner": false,
  "city": "Miami",
  "country": "United States",
  "continent": "North America",
  "lat": 25.7616798,
  "lon": -80.1917902
}, {
  "locationCode": "XRY",
  "title": "Jerez Airport",
  "airAlliance": false,
  "airPartner": false,
  "city": "Jerez de la Frontera",
  "country": "Spain",
  "continent": "Europe",
  "lat": 36.6850064,
  "lon": -6.126074399999999
}, {
  "locationCode": "JFK",
  "title": "New York John F Kennedy International",
  "airAlliance": false,
  "airPartner": false,
  "city": "New York city",
  "country": "United States",
  "continent": "North America",
  "lat": 40.7127753,
  "lon": -74.0059728
}, {
  "locationCode": "KGS",
  "title": "Kos Ippokratis",
  "airAlliance": false,
  "airPartner": false,
  "city": "Kos",
  "country": "Greece",
  "continent": "Europe",
  "lat": 36.8915064,
  "lon": 27.2877228
}, {
  "locationCode": "BIQ",
  "title": "Biarritz Pays Basque",
  "airAlliance": false,
  "airPartner": false,
  "city": "Biarritz",
  "country": "France",
  "continent": "Europe",
  "lat": 43.4831519,
  "lon": -1.558626
}, {
  "locationCode": "MAD",
  "title": "Madrid Adolfo Suarez Barajas",
  "airAlliance": false,
  "airPartner": false,
  "city": "Madrid",
  "country": "Spain",
  "continent": "Europe",
  "lat": 40.4167754,
  "lon": -3.7037902
}, {
  "locationCode": "ENF",
  "title": "Enontekio",
  "airAlliance": false,
  "airPartner": false,
  "city": "Enontekiö",
  "country": "Finland",
  "continent": "Europe",
  "lat": 68.3838562,
  "lon": 23.6332618
}, {
  "locationCode": "POP",
  "title": "Puerto Plata Gregorio Luperon International",
  "airAlliance": false,
  "airPartner": false,
  "city": "Puerto Plata",
  "country": "Dominican Republic",
  "continent": "North America",
  "lat": 19.7807686,
  "lon": -70.6871091
}, {
  "locationCode": "XIY",
  "title": "Xi An Xianyang International",
  "airAlliance": true,
  "airPartner": false,
  "city": "Xi'an",
  "country": "China",
  "continent": "Asia",
  "lat": 34.341574,
  "lon": 108.93977
}, {
  "locationCode": "GOI",
  "title": "Goa Dabolim",
  "airAlliance": false,
  "airPartner": false,
  "city": "Goa",
  "country": "India",
  "continent": "Asia",
  "lat": 15.2993265,
  "lon": 74.12399599999999
}, {
  "locationCode": "OSD",
  "title": "Are Ostersund",
  "airAlliance": false,
  "airPartner": true,
  "city": "Östersund",
  "country": "Sweden",
  "continent": "Europe",
  "lat": 63.1766832,
  "lon": 14.6360681
}, {
  "locationCode": "BCN",
  "title": "Barcelona-El Prat Airport",
  "airAlliance": false,
  "airPartner": false,
  "city": "Barcelona",
  "country": "Spain",
  "continent": "Europe",
  "lat": 41.3850639,
  "lon": 2.1734035
}, {
  "locationCode": "AGP",
  "title": "Malaga Airport ",
  "airAlliance": false,
  "airPartner": false,
  "city": "Málaga",
  "country": "Spain",
  "continent": "Europe",
  "lat": 36.7212737,
  "lon": -4.4213988
}, {
  "locationCode": "TLL",
  "title": "Tallinn Lennart Meri ",
  "airAlliance": false,
  "airPartner": false,
  "city": "Tallinn",
  "country": "Estonia",
  "continent": "Europe",
  "lat": 59.43696079999999,
  "lon": 24.7535747
}, {
  "locationCode": "IVL",
  "title": "Ivalo",
  "airAlliance": false,
  "airPartner": false,
  "city": "Ivalo",
  "country": "Finland",
  "continent": "Europe",
  "lat": 68.6576419,
  "lon": 27.5397058
}, {
  "locationCode": "IBZ",
  "title": "Ibiza",
  "airAlliance": true,
  "airPartner": false,
  "city": "Ibiza",
  "country": "Spain",
  "continent": "Europe",
  "lat": 39.0200099,
  "lon": 1.4821482
}, {
  "locationCode": "SVO",
  "title": "Moscow Sheremetyevo International",
  "airAlliance": false,
  "airPartner": false,
  "city": "Moscow",
  "country": "Russia",
  "continent": "Europe",
  "lat": 55.755826,
  "lon": 37.6172999
}, {
  "locationCode": "KEF",
  "title": "Reykjavik Keflavik International",
  "airAlliance": false,
  "airPartner": false,
  "city": "Reykjavík",
  "country": "Iceland",
  "continent": "Europe",
  "lat": 64.12652059999999,
  "lon": -21.8174392
}, {
  "locationCode": "FUK",
  "title": "Fukuoka",
  "airAlliance": false,
  "airPartner": false,
  "city": "Fukuoka",
  "country": "Japan",
  "continent": "Asia",
  "lat": 33.5903547,
  "lon": 130.4017155
}, {
  "locationCode": "LJU",
  "title": "Ljubljana Joze Pucnik",
  "airAlliance": false,
  "airPartner": false,
  "city": "Ljubljana",
  "country": "Slovenia",
  "continent": "Europe",
  "lat": 46.0569465,
  "lon": 14.5057515
}, {
  "locationCode": "BRU",
  "title": "Brussels Airport",
  "airAlliance": false,
  "airPartner": false,
  "city": "Brussels",
  "country": "Belgium",
  "continent": "Europe",
  "lat": 50.8503463,
  "lon": 4.3517211
}, {
  "locationCode": "DUS",
  "title": "Duesseldorf International Airport",
  "airAlliance": false,
  "airPartner": false,
  "city": "Düsseldorf",
  "country": "Germany",
  "continent": "Europe",
  "lat": 51.2277411,
  "lon": 6.7734556
}, {
  "locationCode": "TMP",
  "title": "Tampere Pirkkala",
  "airAlliance": false,
  "airPartner": false,
  "city": "Tampere",
  "country": "Finland",
  "continent": "Europe",
  "lat": 61.4977524,
  "lon": 23.7609535
}, {
  "locationCode": "JYV",
  "title": "Jyvaskyla",
  "airAlliance": false,
  "airPartner": false,
  "city": "Jyväskylä",
  "country": "Finland",
  "continent": "Europe",
  "lat": 62.2426034,
  "lon": 25.7472567
}, {
  "locationCode": "UME",
  "title": "Umea",
  "airAlliance": false,
  "airPartner": false,
  "city": "Umeå",
  "country": "Sweden",
  "continent": "Europe",
  "lat": 63.8258471,
  "lon": 20.2630354
}, {
  "locationCode": "NGO",
  "title": "Nagoya Chubu Centrair International",
  "airAlliance": false,
  "airPartner": false,
  "city": "Nagoya",
  "country": "Japan",
  "continent": "Asia",
  "lat": 35.1814464,
  "lon": 136.906398
}, {
  "locationCode": "DUB",
  "title": "Dublin International",
  "airAlliance": false,
  "airPartner": false,
  "city": "Dublin",
  "country": "Ireland",
  "continent": "Europe",
  "lat": 53.3498053,
  "lon": -6.2603097
}, {
  "locationCode": "VBY",
  "title": "Visby",
  "airAlliance": false,
  "airPartner": false,
  "city": "Visby",
  "country": "Sweden",
  "continent": "Europe",
  "lat": 57.6348,
  "lon": 18.29484
}, {
  "locationCode": "PMI",
  "title": "Palma Mallorca",
  "airAlliance": true,
  "airPartner": false,
  "city": "Palma de Mallorca",
  "country": "Spain",
  "continent": "Europe",
  "lat": 39.5696005,
  "lon": 2.6501603
}, {
  "locationCode": "KBV",
  "title": "Krabi",
  "airAlliance": false,
  "airPartner": true,
  "city": "Krabi",
  "country": "Thailand",
  "continent": "Asia",
  "lat": 8.0862997,
  "lon": 98.9062835
}, {
  "locationCode": "JTR",
  "title": "Santorini",
  "airAlliance": false,
  "airPartner": false,
  "city": "Santorini",
  "country": "Greece",
  "continent": "Europe",
  "lat": 36.3931562,
  "lon": 25.4615092
}, {
  "locationCode": "VIE",
  "title": "Vienna International",
  "airAlliance": false,
  "airPartner": false,
  "city": "Vienna",
  "country": "Austria",
  "continent": "Europe",
  "lat": 48.2081743,
  "lon": 16.3738189
}, {
  "locationCode": "SOF",
  "title": "Sofia",
  "airAlliance": true,
  "airPartner": false,
  "city": "Sofia",
  "country": "Bulgaria",
  "continent": "Europe",
  "lat": 42.6977082,
  "lon": 23.3218675
}, {
  "locationCode": "NUE",
  "title": "Nuremberg Airport",
  "airAlliance": true,
  "airPartner": false,
  "city": "Nuremberg",
  "country": "Germany",
  "continent": "Europe",
  "lat": 49.4521018,
  "lon": 11.0766654
}, {
  "locationCode": "HKG",
  "title": "Hong Kong International",
  "airAlliance": false,
  "airPartner": false,
  "city": "Hong Kong",
  "country": "China",
  "continent": "Asia",
  "lat": 22.396428,
  "lon": 114.109497
}, {
  "locationCode": "YUL",
  "title": "Montreal Pierre E. Trudeau International",
  "airAlliance": true,
  "airPartner": false,
  "city": "Montréal",
  "country": "Canada",
  "continent": "North America",
  "lat": 45.5016889,
  "lon": -73.567256
}, {
  "locationCode": "VAA",
  "title": "Vaasa",
  "airAlliance": false,
  "airPartner": false,
  "city": "Vaasa",
  "country": "Finland",
  "continent": "Europe",
  "lat": 63.09508899999999,
  "lon": 21.6164564
}]
